{"type": "FeatureCollection", "features": [{"geometry": {"type": "Point", "coordinates": [-73.1503, 44.4681]}, "type": "Feature", "properties": {"state": "VT", "hcn": "USH00431081", "name": "BURLINGTON WSO AP", "elev": 330.0, "ghcn": "USW00014742"}, "id": "USH00431081"}, {"geometry": {"type": "Point", "coordinates": [-72.5989, 43.3847]}, "type": "Feature", "properties": {"state": "VT", "hcn": "USH00431243", "name": "CAVENDISH", "elev": 842.0, "ghcn": "USC00431243"}, "id": "USH00431243"}, {"geometry": {"type": "Point", "coordinates": [-72.45, 43.9833]}, "type": "Feature", "properties": {"state": "VT", "hcn": "USH00431360", "name": "CHELSEA", "elev": 800.0, "ghcn": "USC00431360"}, "id": "USH00431360"}, {"geometry": {"type": "Point", "coordinates": [-73.2106, 43.9572]}, "type": "Feature", "properties": {"state": "VT", "hcn": "USH00431580", "name": "CORNWALL", "elev": 345.0, "ghcn": "USC00431580"}, "id": "USH00431580"}, {"geometry": {"type": "Point", "coordinates": [-72.8083, 44.9094]}, "type": "Feature", "properties": {"state": "VT", "hcn": "USH00432769", "name": "ENOSBURG FALLS", "elev": 420.0, "ghcn": "USC00432769"}, "id": "USH00432769"}, {"geometry": {"type": "Point", "coordinates": [-72.0194, 44.42]}, "type": "Feature", "properties": {"state": "VT", "hcn": "USH00437054", "name": "SAINT JOHNSBURY", "elev": 700.0, "ghcn": "USC00437054"}, "id": "USH00437054"}, {"geometry": {"type": "Point", "coordinates": [-73.3031, 44.6264]}, "type": "Feature", "properties": {"state": "VT", "hcn": "USH00437607", "name": "SOUTH HERO", "elev": 110.0, "ghcn": "USC00437607"}, "id": "USH00437607"}, {"geometry": {"type": "Point", "coordinates": [-72.9736, 44.0725]}, "type": "Feature", "properties": {"state": "VT", "hcn": "USH00437612", "name": "SOUTH LINCOLN", "elev": 1341.0, "ghcn": "USC00437612"}, "id": "USH00437612"}]}